[
  {
    "Archive": "CampRd",
    "Full_Name": "Melbourne (Broadmeadows)",
    "Group": "Yes",
    "IDRnn0name": "CampRd",
    "IDRnn1name": "CampRd",
    "Latitude": -37.691,
    "LocationID": 1,
    "Longitude": 144.946,
    "Name": "Melbourne (Broadmeadows)",
    "Radar_id": 1,
    "State": "VIC",
    "Status": "Reg_users",
    "Type": "Doppler"
  },
  {
    "Archive": "Wathroo",
    "Full_Name": "Watheroo",
    "Group": "Yes",
    "IDRnn0name": "Wathroo",
    "IDRnn1name": "Watheroo",
    "Latitude": -30.36,
    "LocationID": 79,
    "Longitude": 116.2922,
    "Name": "Watheroo",
    "Radar_id": 79,
    "State": "WA",
    "Status": "Public",
    "Type": "Doppler"
  },
  {
    "Archive": "SthDood",
    "Full_Name": "South Doodlakine",
    "Group": "Yes",
    "IDRnn0name": "SthDood",
    "IDRnn1name": "South Doodlakine",
    "Latitude": -31.777,
    "LocationID": 58,
    "Longitude": 117.953,
    "Name": "South Doodlakine",
    "Radar_id": 58,
    "State": "WA",
    "Status": "Public",
    "Type": "Doppler"
  },
  {
    "Archive": "Weipa",
    "Full_Name": "Weipa",
    "Group": "Yes",
    "IDRnn0name": "Weipa",
    "IDRnn1name": "Weipa",
    "Latitude": -12.666,
    "LocationID": 78,
    "Longitude": 141.925,
    "Name": "Weipa",
    "Radar_id": 78,
    "State": "QLD",
    "Status": "Public",
    "Type": "Doppler"
  },
  {
    "Archive": "Arafura",
    "Full_Name": "Warruwi",
    "Group": "Yes",
    "IDRnn0name": "Arafura",
    "IDRnn1name": "Arafura",
    "Latitude": -11.6485,
    "LocationID": 77,
    "Longitude": 133.38,
    "Name": "Warruwi",
    "Radar_id": 77,
    "State": "NT",
    "Status": "Public",
    "Type": "Doppler"
  },
  {
    "Archive": "Gove",
    "Full_Name": "Gove",
    "Group": "Yes",
    "IDRnn0name": "Gove",
    "IDRnn1name": "Gove",
    "Latitude": -12.275,
    "LocationID": 9,
    "Longitude": 136.823,
    "Name": "Gove",
    "Radar_id": 9,
    "State": "NT",
    "Status": "Public",
    "Type": "Part-time windfinding"
  },
  {
    "Archive": "Darwin",
    "Full_Name": "Darwin Airport",
    "Group": "No",
    "IDRnn0name": "Darwin",
    "IDRnn1name": "DarwinAP",
    "Latitude": -12.4247,
    "LocationID": 10,
    "Longitude": 130.8919,
    "Name": "Darwin Ap",
    "Radar_id": 10,
    "State": "NT",
    "Status": "Reg_users",
    "Type": "Part-time windfinding"
  },
  {
    "Archive": "Berrima",
    "Full_Name": "Darwin (Berrimah)",
    "Group": "Yes",
    "IDRnn0name": "Berrima",
    "IDRnn1name": "Darwin",
    "Latitude": -12.457,
    "LocationID": 63,
    "Longitude": 130.925,
    "Name": "Darwin",
    "Radar_id": 63,
    "State": "NT",
    "Status": "Public",
    "Type": "Doppler"
  },
  {
    "Archive": "Tindal",
    "Full_Name": "Katherine (Tindal)",
    "Group": "Yes",
    "IDRnn0name": "Tindal",
    "IDRnn1name": "Tindal",
    "Latitude": -14.513,
    "LocationID": 42,
    "Longitude": 132.446,
    "Name": "Katherine",
    "Radar_id": 42,
    "State": "NT",
    "Status": "Public",
    "Type": "Dedicated weather watch"
  },
  {
    "Archive": "Wyndham",
    "Full_Name": "Wyndham",
    "Group": "Yes",
    "IDRnn0name": "Wyndham",
    "IDRnn1name": "Wyndham",
    "Latitude": -15.453,
    "LocationID": 7,
    "Longitude": 128.119,
    "Name": "Wyndham",
    "Radar_id": 7,
    "State": "WA",
    "Status": "Public",
    "Type": "Dedicated weather watch"
  },
  {
    "Archive": "Willis",
    "Full_Name": "Willis Island",
    "Group": "Yes",
    "IDRnn0name": "Willis",
    "IDRnn1name": "WillisIs",
    "Latitude": -16.2874,
    "LocationID": 41,
    "Longitude": 149.9646,
    "Name": "Willis Is",
    "Radar_id": 41,
    "State": "QLD",
    "Status": "Public",
    "Type": "Part-time windfinding"
  },
  {
    "Archive": "GlfCarp",
    "Full_Name": "Mornington Island (Gulf of Carpentaria)",
    "Group": "Yes",
    "IDRnn0name": "GlfCarp",
    "IDRnn1name": "GulfCarp",
    "Latitude": -16.666,
    "LocationID": 36,
    "Longitude": 139.167,
    "Name": "Mornington Is",
    "Radar_id": 36,
    "State": "QLD",
    "Status": "Public",
    "Type": "Dedicated weather watch"
  },
  {
    "Archive": "Cairns",
    "Full_Name": "Cairns",
    "Group": "Yes",
    "IDRnn0name": "Cairns",
    "IDRnn1name": "Cairns",
    "Latitude": -16.817,
    "LocationID": 19,
    "Longitude": 145.683,
    "Name": "Cairns",
    "Radar_id": 19,
    "State": "QLD",
    "Status": "Public",
    "Type": "Doppler"
  },
  {
    "Archive": "Broome",
    "Full_Name": "Broome",
    "Group": "Yes",
    "IDRnn0name": "Broome",
    "IDRnn1name": "Broome",
    "Latitude": -17.9483,
    "LocationID": 17,
    "Longitude": 122.2353,
    "Name": "Broome",
    "Radar_id": 17,
    "State": "WA",
    "Status": "Public",
    "Type": "Part-time windfinding"
  },
  {
    "Archive": "HallsCk",
    "Full_Name": "Halls Creek",
    "Group": "Yes",
    "IDRnn0name": "HallsCk",
    "IDRnn1name": "HallsCreek",
    "Latitude": -18.231,
    "LocationID": 39,
    "Longitude": 127.663,
    "Name": "Halls Creek",
    "Radar_id": 39,
    "State": "WA",
    "Status": "Public",
    "Type": "Part-time windfinding"
  },
  {
    "Archive": "HrvyRng",
    "Full_Name": "Townsville (Hervey Range)",
    "Group": "Yes",
    "IDRnn0name": "HrvyRng",
    "IDRnn1name": "HrvyRng",
    "Latitude": -19.4198,
    "LocationID": 73,
    "Longitude": 146.5509,
    "Name": "Townsville",
    "Radar_id": 73,
    "State": "QLD",
    "Status": "Public",
    "Type": "Doppler"
  },
  {
    "Archive": "Bowen",
    "Full_Name": "Bowen",
    "Group": "Yes",
    "IDRnn0name": "Bowen",
    "IDRnn1name": "Bowen",
    "Latitude": -19.886,
    "LocationID": 24,
    "Longitude": 148.075,
    "Name": "Bowen",
    "Radar_id": 24,
    "State": "QLD",
    "Status": "Public",
    "Type": "Dedicated weather watch"
  },
  {
    "Archive": "P_Hedld",
    "Full_Name": "Port Hedland",
    "Group": "Yes",
    "IDRnn0name": "PtHedland",
    "IDRnn1name": "PtHedland",
    "Latitude": -20.3719,
    "LocationID": 16,
    "Longitude": 118.6317,
    "Name": "Port Hedland",
    "Radar_id": 16,
    "State": "WA",
    "Status": "Public",
    "Type": "Dedicated weather watch"
  },
  {
    "Archive": "Dampier",
    "Full_Name": "Dampier",
    "Group": "Yes",
    "IDRnn0name": "Dampier",
    "IDRnn1name": "Dampier",
    "Latitude": -20.65,
    "LocationID": 15,
    "Longitude": 116.687,
    "Name": "Dampier",
    "Radar_id": 15,
    "State": "WA",
    "Status": "Public",
    "Type": "Dedicated weather watch"
  },
  {
    "Archive": "Mnt_Isa",
    "Full_Name": "Mount Isa",
    "Group": "Yes",
    "IDRnn0name": "Mnt_Isa",
    "IDRnn1name": "Mnt_Isa",
    "Latitude": -20.7112,
    "LocationID": 75,
    "Longitude": 139.5552,
    "Name": "Mount Isa",
    "Radar_id": 75,
    "State": "QLD",
    "Status": "Public",
    "Type": "Doppler"
  },
  {
    "Archive": "Mackay",
    "Full_Name": "Mackay",
    "Group": "Yes",
    "IDRnn0name": "Mackay",
    "IDRnn1name": "Mackay",
    "Latitude": -21.117,
    "LocationID": 22,
    "Longitude": 149.217,
    "Name": "Mackay",
    "Radar_id": 22,
    "State": "QLD",
    "Status": "Public",
    "Type": "Dedicated weather watch"
  },
  {
    "Archive": "Lrmonth",
    "Full_Name": "Learmonth",
    "Group": "Yes",
    "IDRnn0name": "Lrmonth",
    "IDRnn1name": "Learmonth",
    "Latitude": -22.103,
    "LocationID": 29,
    "Longitude": 113.999,
    "Name": "Learmonth",
    "Radar_id": 29,
    "State": "WA",
    "Status": "Public",
    "Type": "Dedicated weather watch"
  },
  {
    "Archive": "Longrch",
    "Full_Name": "Longreach",
    "Group": "Yes",
    "IDRnn0name": "Longrch",
    "IDRnn1name": "Longreach",
    "Latitude": -23.43,
    "LocationID": 56,
    "Longitude": 144.29,
    "Name": "Longreach",
    "Radar_id": 56,
    "State": "QLD",
    "Status": "Public",
    "Type": "Dedicated weather watch"
  },
  {
    "Archive": "Emerald",
    "Full_Name": "Emerald",
    "Group": "Yes",
    "IDRnn0name": "Emerald",
    "IDRnn1name": "Emerald",
    "Latitude": -23.5498,
    "LocationID": 72,
    "Longitude": 148.2392,
    "Name": "Emerald",
    "Radar_id": 72,
    "State": "QLD",
    "Status": "Public",
    "Type": "Doppler"
  },
  {
    "Archive": "AliceSp",
    "Full_Name": "Alice Springs",
    "Group": "Yes",
    "IDRnn0name": "AliceSp",
    "IDRnn1name": "AliceSprings",
    "Latitude": -23.796,
    "LocationID": 25,
    "Longitude": 133.888,
    "Name": "Alice Springs",
    "Radar_id": 25,
    "State": "NT",
    "Status": "Public",
    "Type": "Part-time windfinding"
  },
  {
    "Archive": "Gladstn",
    "Full_Name": "Gladstone",
    "Group": "Yes",
    "IDRnn0name": "Gladstn",
    "IDRnn1name": "Gladstone",
    "Latitude": -23.855,
    "LocationID": 23,
    "Longitude": 151.2626,
    "Name": "Gladstone",
    "Radar_id": 23,
    "State": "QLD",
    "Status": "Public",
    "Type": "Dedicated weather watch"
  },
  {
    "Archive": "Carnvn",
    "Full_Name": "Carnarvon",
    "Group": "Yes",
    "IDRnn0name": "Carnvn",
    "IDRnn1name": "Carnarvon",
    "Latitude": -24.8878,
    "LocationID": 5,
    "Longitude": 113.6695,
    "Name": "Carnarvon",
    "Radar_id": 5,
    "State": "WA",
    "Status": "Public",
    "Type": "Dedicated weather watch"
  },
  {
    "Archive": "Giles",
    "Full_Name": "Giles",
    "Group": "Yes",
    "IDRnn0name": "Giles",
    "IDRnn1name": "Giles",
    "Latitude": -25.03,
    "LocationID": 44,
    "Longitude": 128.3,
    "Name": "Giles",
    "Radar_id": 44,
    "State": "WA",
    "Status": "Public",
    "Type": "Part-time windfinding"
  },
  {
    "Archive": "Kanign",
    "Full_Name": "Gympie (Mount Kanigan)",
    "Group": "Yes",
    "IDRnn0name": "Kanign",
    "IDRnn1name": "Gympie",
    "Latitude": -25.9574,
    "LocationID": 8,
    "Longitude": 152.577,
    "Name": "Gympie",
    "Radar_id": 8,
    "State": "QLD",
    "Status": "Public",
    "Type": "Doppler"
  },
  {
    "Archive": "Warrego",
    "Full_Name": "Warrego",
    "Group": "Yes",
    "IDRnn0name": "Warrego",
    "IDRnn1name": "Warrego",
    "Latitude": -26.44,
    "LocationID": 67,
    "Longitude": 147.3492,
    "Name": "Warrego",
    "Radar_id": 67,
    "State": "QLD",
    "Status": "Public",
    "Type": "Dedicated weather watch"
  },
  {
    "Archive": "Marburg",
    "Full_Name": "Brisbane (Marburg)",
    "Group": "Yes",
    "IDRnn0name": "Marburg",
    "IDRnn1name": "Brisbane",
    "Latitude": -27.608,
    "LocationID": 50,
    "Longitude": 152.539,
    "Name": "Marburg",
    "Radar_id": 50,
    "State": "QLD",
    "Status": "Public",
    "Type": "Dedicated weather watch"
  },
  {
    "Archive": "MtStapl",
    "Full_Name": "Brisbane (Mt Stapylton)",
    "Group": "Yes",
    "IDRnn0name": "MtStapl",
    "IDRnn1name": "MtStapylton",
    "Latitude": -27.7178,
    "LocationID": 66,
    "Longitude": 153.24,
    "Name": "Brisbane",
    "Radar_id": 66,
    "State": "QLD",
    "Status": "Public",
    "Type": "Doppler"
  },
  {
    "Archive": "Gerlton",
    "Full_Name": "Geraldton",
    "Group": "Yes",
    "IDRnn0name": "Gerlton",
    "IDRnn1name": "Geraldton",
    "Latitude": -28.8044,
    "LocationID": 6,
    "Longitude": 114.6972,
    "Name": "Geraldton",
    "Radar_id": 6,
    "State": "WA",
    "Status": "Public",
    "Type": "Part-time windfinding"
  },
  {
    "Archive": "Norfolk",
    "Full_Name": "Norfolk Island",
    "Group": "Yes",
    "IDRnn0name": "Norfolk",
    "IDRnn1name": "NorfolkIs",
    "Latitude": -29.033,
    "LocationID": 62,
    "Longitude": 167.933,
    "Name": "Norfolk Is",
    "Radar_id": 62,
    "State": "NSW",
    "Status": "Public",
    "Type": "Part-time windfinding"
  },
  {
    "Archive": "Moree",
    "Full_Name": "Moree",
    "Group": "Yes",
    "IDRnn0name": "Moree",
    "IDRnn1name": "Moree",
    "Latitude": -29.5,
    "LocationID": 53,
    "Longitude": 149.85,
    "Name": "Moree",
    "Radar_id": 53,
    "State": "NSW",
    "Status": "Public",
    "Type": "Dedicated weather watch"
  },
  {
    "Archive": "Grafton",
    "Full_Name": "Grafton",
    "Group": "Yes",
    "IDRnn0name": "Grafton",
    "IDRnn1name": "Grafton",
    "Latitude": -29.622,
    "LocationID": 28,
    "Longitude": 152.951,
    "Name": "Grafton",
    "Radar_id": 28,
    "State": "NSW",
    "Status": "Public",
    "Type": "Dedicated weather watch"
  },
  {
    "Archive": "K_grlie",
    "Full_Name": "Kalgoorlie",
    "Group": "Yes",
    "IDRnn0name": "K/grlie",
    "IDRnn1name": "Kalgoorlie",
    "Latitude": -30.7834,
    "LocationID": 48,
    "Longitude": 121.4549,
    "Name": "Kalgoorlie",
    "Radar_id": 48,
    "State": "WA",
    "Status": "Public",
    "Type": "Doppler"
  },
  {
    "Archive": "Namoi",
    "Full_Name": "Namoi (Blackjack Mountain)",
    "Group": "Yes",
    "IDRnn0name": "Namoi",
    "IDRnn1name": "Namoi",
    "Latitude": -31.0236,
    "LocationID": 69,
    "Longitude": 150.1917,
    "Name": "Namoi",
    "Radar_id": 69,
    "State": "NSW",
    "Status": "Public",
    "Type": "Doppler"
  },
  {
    "Archive": "Woomera",
    "Full_Name": "Woomera",
    "Group": "Yes",
    "IDRnn0name": "Woomera",
    "IDRnn1name": "Woomera",
    "Latitude": -31.157,
    "LocationID": 27,
    "Longitude": 136.803,
    "Name": "Woomera",
    "Radar_id": 27,
    "State": "SA",
    "Status": "Public",
    "Type": "Dedicated weather watch"
  },
  {
    "Archive": "PrthA_P",
    "Full_Name": "Perth Airport",
    "Group": "No",
    "IDRnn0name": "PrthAP",
    "IDRnn1name": "PerthAp",
    "Latitude": -31.9273,
    "LocationID": 26,
    "Longitude": 115.9756,
    "Name": "Perth Ap",
    "Radar_id": 26,
    "State": "WA",
    "Status": "Reg_users",
    "Type": "Part-time windfinding"
  },
  {
    "Archive": "Ceduna",
    "Full_Name": "Ceduna",
    "Group": "Yes",
    "IDRnn0name": "Ceduna",
    "IDRnn1name": "Ceduna",
    "Latitude": -32.1298,
    "LocationID": 33,
    "Longitude": 133.6963,
    "Name": "Ceduna",
    "Radar_id": 33,
    "State": "SA",
    "Status": "Public",
    "Type": "Dedicated weather watch"
  },
  {
    "Archive": "Serpin",
    "Full_Name": "Perth (Serpentine)",
    "Group": "Yes",
    "IDRnn0name": "Serpin",
    "IDRnn1name": "Serpin",
    "Latitude": -32.3917,
    "LocationID": 70,
    "Longitude": 115.867,
    "Name": "Perth",
    "Radar_id": 70,
    "State": "WA",
    "Status": "Public",
    "Type": "Doppler"
  },
  {
    "Archive": "LemnTre",
    "Full_Name": "Newcastle",
    "Group": "Yes",
    "IDRnn0name": "LemnTre",
    "IDRnn1name": "Newcastle",
    "Latitude": -32.73,
    "LocationID": 4,
    "Longitude": 152.025,
    "Name": "Newcastle",
    "Radar_id": 4,
    "State": "NSW",
    "Status": "Public",
    "Type": "Doppler"
  },
  {
    "Archive": "T_Hills",
    "Full_Name": "Sydney (Terrey Hills)",
    "Group": "Yes",
    "IDRnn0name": "TerreyHills",
    "IDRnn1name": "TerreyHills",
    "Latitude": -33.7008,
    "LocationID": 71,
    "Longitude": 151.2094,
    "Name": "Sydney",
    "Radar_id": 71,
    "State": "NSW",
    "Status": "Public",
    "Type": "Doppler"
  },
  {
    "Archive": "Esprnce",
    "Full_Name": "Esperance",
    "Group": "Yes",
    "IDRnn0name": "Esprnce",
    "IDRnn1name": "Esperance",
    "Latitude": -33.8303,
    "LocationID": 32,
    "Longitude": 121.8917,
    "Name": "Esperance",
    "Radar_id": 32,
    "State": "WA",
    "Status": "Public",
    "Type": "Part-time windfinding"
  },
  {
    "Archive": "Kurnell",
    "Full_Name": "Sydney (Kurnell)",
    "Group": "No",
    "IDRnn0name": "Kurnell",
    "IDRnn1name": "Kurnell",
    "Latitude": -34.0148,
    "LocationID": 54,
    "Longitude": 151.2263,
    "Name": "Kurnell",
    "Radar_id": 54,
    "State": "NSW",
    "Status": "Reg_users",
    "Type": "Doppler"
  },
  {
    "Archive": "Mildura",
    "Full_Name": "Mildura",
    "Group": "Yes",
    "IDRnn0name": "Mildura",
    "IDRnn1name": "Mildura",
    "Latitude": -34.23504,
    "LocationID": 30,
    "Longitude": 142.0861,
    "Name": "Mildura",
    "Radar_id": 30,
    "State": "VIC",
    "Status": "Public",
    "Type": "Dedicated weather watch"
  },
  {
    "Archive": "Wollgng",
    "Full_Name": "Wollongong (Appin)",
    "Group": "Yes",
    "IDRnn0name": "Wollgng",
    "IDRnn1name": "Wollgng",
    "Latitude": -34.2625,
    "LocationID": 3,
    "Longitude": 150.8752,
    "Name": "Wollongong",
    "Radar_id": 3,
    "State": "NSW",
    "Status": "Public",
    "Type": "Doppler"
  },
  {
    "Archive": "BuckPk",
    "Full_Name": "Adelaide (Buckland Park)",
    "Group": "Yes",
    "IDRnn0name": "BuckPk",
    "IDRnn1name": "BucklandPk",
    "Latitude": -34.6169,
    "LocationID": 64,
    "Longitude": 138.4689,
    "Name": "Adelaide",
    "Radar_id": 64,
    "State": "SA",
    "Status": "Public",
    "Type": "Doppler"
  },
  {
    "Archive": "Albany",
    "Full_Name": "Albany",
    "Group": "Yes",
    "IDRnn0name": "Albany",
    "IDRnn1name": "Albany",
    "Latitude": -34.9418,
    "LocationID": 31,
    "Longitude": 117.8163,
    "Name": "Albany",
    "Radar_id": 31,
    "State": "WA",
    "Status": "Public",
    "Type": "Part-time windfinding"
  },
  {
    "Archive": "Wagga",
    "Full_Name": "Wagga Wagga",
    "Group": "Yes",
    "IDRnn0name": "Wagga",
    "IDRnn1name": "Wagga",
    "Latitude": -35.167,
    "LocationID": 55,
    "Longitude": 147.467,
    "Name": "Wagga Wagga",
    "Radar_id": 55,
    "State": "NSW",
    "Status": "Public",
    "Type": "Part-time windfinding"
  },
  {
    "Archive": "Sellick",
    "Full_Name": "Adelaide (Sellicks Hill)",
    "Group": "Yes",
    "IDRnn0name": "Sellick",
    "IDRnn1name": "Adelaide",
    "Latitude": -35.33,
    "LocationID": 46,
    "Longitude": 138.5,
    "Name": "Sellicks Hill",
    "Radar_id": 46,
    "State": "SA",
    "Status": "Public",
    "Type": "Dedicated weather watch"
  },
  {
    "Archive": "CapFlat",
    "Full_Name": "Canberra (Captains Flat)",
    "Group": "Yes",
    "IDRnn0name": "CapFlat",
    "IDRnn1name": "CaptFlat",
    "Latitude": -35.6614,
    "LocationID": 40,
    "Longitude": 149.5122,
    "Name": "Canberra",
    "Radar_id": 40,
    "State": "NSW",
    "Status": "Public",
    "Type": "Doppler"
  },
  {
    "Archive": "NE_Vic",
    "Full_Name": "Yarrawonga",
    "Group": "Yes",
    "IDRnn0name": "NE-Vic",
    "IDRnn1name": "Yarrawonga",
    "Latitude": -36.0297,
    "LocationID": 49,
    "Longitude": 146.0228,
    "Name": "Yarrawonga",
    "Radar_id": 49,
    "State": "VIC",
    "Status": "Public",
    "Type": "Doppler"
  },
  {
    "Archive": "Gambier",
    "Full_Name": "Mount Gambier",
    "Group": "Yes",
    "IDRnn0name": "Gambier",
    "IDRnn1name": "Mt Gambier",
    "Latitude": -37.7477,
    "LocationID": 14,
    "Longitude": 140.7746,
    "Name": "Mt Gambier",
    "Radar_id": 14,
    "State": "SA",
    "Status": "Public",
    "Type": "Dedicated weather watch"
  },
  {
    "Archive": "Melb",
    "Full_Name": "Melbourne (Laverton)",
    "Group": "Yes",
    "IDRnn0name": "Melb",
    "IDRnn1name": "Melbourne",
    "Latitude": -37.85525,
    "LocationID": 2,
    "Longitude": 144.75544,
    "Name": "Melbourne",
    "Radar_id": 2,
    "State": "VIC",
    "Status": "Public",
    "Type": "Doppler"
  },
  {
    "Archive": "Bnsdale",
    "Full_Name": "Bairnsdale",
    "Group": "Yes",
    "IDRnn0name": "Bnsdale",
    "IDRnn1name": "Bairnsdale",
    "Latitude": -37.8876,
    "LocationID": 68,
    "Longitude": 147.5755,
    "Name": "Bairnsdale",
    "Radar_id": 68,
    "State": "VIC",
    "Status": "Public",
    "Type": "Dedicated weather watch"
  },
  {
    "Archive": "WTakone",
    "Full_Name": "NW Tasmania (West Takone)",
    "Group": "Yes",
    "IDRnn0name": "WTakone",
    "IDRnn1name": "NW-Tas",
    "Latitude": -41.181,
    "LocationID": 52,
    "Longitude": 145.579,
    "Name": "NW Tasmania",
    "Radar_id": 52,
    "State": "TAS",
    "Status": "Public",
    "Type": "Doppler"
  },
  {
    "Archive": "HobrtAP",
    "Full_Name": "Hobart Airport",
    "Group": "No",
    "IDRnn0name": "HobrtAP",
    "IDRnn1name": "HobrtAp",
    "Latitude": -42.83736,
    "LocationID": 37,
    "Longitude": 147.50084,
    "Name": "Hobart Ap",
    "Radar_id": 37,
    "State": "TAS",
    "Status": "Reg_users",
    "Type": "Part-time windfinding"
  },
  {
    "Archive": "Koonya",
    "Full_Name": "Hobart (Mt Koonya)",
    "Group": "Yes",
    "IDRnn0name": "Koonya",
    "IDRnn1name": "Koonya",
    "Latitude": -43.1122,
    "LocationID": 76,
    "Longitude": 147.8057,
    "Name": "Hobart",
    "Radar_id": 76,
    "State": "TAS",
    "Status": "Public",
    "Type": "Doppler"
  },
  {
    "Archive": "Ndegate",
    "Full_Name": "Newdegate",
    "Group": "Yes",
    "IDRnn0name": "Ndegate",
    "IDRnn1name": "Newdegate",
    "Latitude": -33.097,
    "LocationID": 38,
    "Longitude": 119.009,
    "Name": "Newdegate",
    "Radar_id": 38,
    "State": "WA",
    "Status": "Public",
    "Type": "Doppler"
  }
]
